"","FACIL_NAME","STATE","BRANCH","Latitude","Longitude","intersection","HUC","elevation","elev_units","geometry"
"1","AASF #1 R W Shepherd Hope Hull","Alabama","Army",32.287795,-86.395382,35435,"031502010406",73.11,"meters",c(-86.395382, 32.287795)
"2","AASF #2 Birmingham","Alabama","Army",33.5720735,-86.7505529,4091,"031601110408",195.18,"meters",c(-86.7505529, 33.5720735)
"3","AASF #3 Bates Field Mobile","Alabama","Army",30.691389,-88.242778,37005,"031700080601",64.15,"meters",c(-88.242778, 30.691389)
"4","Anniston Army Depot","Alabama","Army",33.6171369,-85.9677017,36442,"031501060513",196.06,"meters",c(-85.9677017, 33.6171369)
"5","Fort McClellan","Alabama","Army",33.7257961,-85.7902323,36283,"031501060401",240.93,"meters",c(-85.7902323, 33.7257961)
"6","Fort Rucker","Alabama","Army",31.3400515,-85.7153754,35706,"031402010903",99.97,"meters",c(-85.7153754, 31.3400515)
"7","Montgomery Regional (Dannelly Field)","Alabama","Air Force",32.3050713,-86.3906353,35432,"031502010310",60.08,"meters",c(-86.3906353, 32.3050713)
"8","Pelham Range","Alabama","Army",33.7271908,-85.8937313,36287,"031501060407",193.3,"meters",c(-85.8937313, 33.7271908)
"9","Adak AK NAF","Alaska","Navy",51.878056,-176.646111,98592,"190301030000",NA,"meters",c(-176.646107601846, 51.8780398485559)
"10","Bethel AAOF","Alaska","Army",60.782241,-161.842619,75449,"190305023201",35.9,"meters",c(-161.842619, 60.782241)
"11","Bryant Airfield-  JBER","Alaska","Army",61.2625077,-149.6547035,36556,"190204010404",109.82,"meters",c(-149.6547035, 61.2625077)
"12","Eareckson AFB","Alaska","Air Force",52.7228375,174.1123656,98592,"190301030000",NA,"meters",c(174.112359527279, 52.7228224111804)
"13","Fort Greely","Alaska","Army",63.8858021,-145.607616,51964,"190803031310",492.1,"meters",c(-145.607616, 63.8858021)
"14","Fort Wainwright","Alaska","Army",64.8415875,-147.6100698,102826,"190803060909",137.96,"meters",c(-147.6100698, 64.8415875)
"15","Fort Wainwright - Gerstle River Test Site","Alaska","Army",63.759444,-145.084722,51909,"190803031204",577.98,"meters",c(-145.084722, 63.759444)
"16","Fort Wainwright - Haines Pipeline Facilities","Alaska","Army",63.0622,-141.9072,102267,"190803020404",517.33,"meters",c(-141.9072, 63.0622)
"17","Juneau AAOF","Alaska","Army",58.35754,-134.568192,12471,"190103010606",5.64,"meters",c(-134.568192, 58.35754)
"18","King Salmon","Alaska","Air Force",58.6883251,-156.661351,96902,"190302041501",NA,"meters",c(-156.661351, 58.6883251)
"19","Nome AAOF","Alaska","Army",58.357432,-134.569571,12471,"190103010606",7,"meters",c(-134.569571, 58.357432)
"20","Air Force Research Laboratory Mesa","Arizona","Air Force",33.305588,-111.671744,34347,"150501000808",410.11,"meters",c(-111.671744, 33.305588)
"21","Popago Military Reservation","Arizona","Army",33.4668677,-111.9620897,36522,"150601060306",386.39,"meters",c(-111.9620897, 33.4668677)
"22","Tempe Readiness Center","Arizona","Army",33.4203544,-111.9721775,36522,"150601060306",347.74,"meters",c(-111.9721775, 33.4203544)
"23","Williams AFB","Arizona","Air Force",33.311486,-111.681845,34347,"150501000808",405.81,"meters",c(-111.681845, 33.311486)
"24","Camp Robinson","Arkansas","Army",34.8056141,-92.2659159,19998,"111102070401",99.43,"meters",c(-92.2659159, 34.8056141)
"25","Little Rock AFB","Arkansas","Air Force",34.8964136,-92.1446849,35222,"080204020104",114.88,"meters",c(-92.1446849, 34.8964136)
"26","Pine Bluff Arsenal","Arkansas","Army",34.3025046,-92.0855818,19926,"111102070605",76.03,"meters",c(-92.0855818, 34.3025046)
"27","Air Force Plant 42","California","Air Force",34.6319268,-118.088878,6127,"180902061408",764.82,"meters",c(-118.088878, 34.6319268)
"28","AZUSA CA NCCOSC MORRIS DA","California","Navy",34.181689,-117.871663,2147,"180701060601",371.73,"meters",c(-117.871663, 34.181689)
"29","Camp San Luis Obispo","California","Army",35.3232464,-120.7374608,38837,"180600060502",75.47,"meters",c(-120.7374608, 35.3232464)
"30","Concord NWS","California","Navy",38.0196297,-122.0262623,57617,"180500010302",8.67,"meters",c(-122.0262623, 38.0196297)
"31","Crows NALF","California","Navy",37.4080056,-121.1094188,82151,"180400020205",45.82,"meters",c(-121.1094188, 37.4080056)
"32","DFSP Norwalk","California","DLA",33.892391,-118.072909,2152,"180701060606",23.66,"meters",c(-118.072909, 33.892391)
"33","DFSP Ozol","California","DLA",38.0265879,-122.1630219,57619,"180500010401",1.59,"meters",c(-122.1630219, 38.0265879)
"34","DFSP San Pedro","California","DLA",33.775384,-118.2971871,2153,"180701060701",9.51,"meters",c(-118.2971871, 33.775384)
"35","EL CENTRO CA NAF","California","Navy",32.8113356,-115.6722218,20955,"181002041103",-12.57,"meters",c(-115.6722218, 32.8113356)
"36","FALLON NV NAS","California","Navy",39.4202278,-118.7251208,55750,"160502030306",1199.46,"meters",c(-118.7251208, 39.4202278)
"37","Fort Irwin","California","Army",35.2628402,-116.6846351,83825,"180902081501",757.73,"meters",c(-116.6846351, 35.2628402)
"38","Fresno Air Guard/Fresno TASMG","California","Air Force/Army",36.7653025,-119.712675,59943,"180300090503",99.35,"meters",c(-119.712675, 36.7653025)
"39","Hunters Point Annex","California","Navy",37.7206531,-122.3673427,57062,"180500041001",3.09,"meters",c(-122.3673427, 37.7206531)
"40","IMPERIAL BEACH CA NAVALF","California","Navy",32.5690025,-117.1058558,6345,"180703051304",8.93,"meters",c(-117.1058558, 32.5690025)
"41","LEMOORE CA NAS","California","Navy",36.2606432,-119.9109482,38264,"180300120703",70.69,"meters",c(-119.9109482, 36.2606432)
"42","Long Beach NS/NSY","California","Navy",33.756702,-118.236993,2153,"180701060701",2.3,"meters",c(-118.236993, 33.756702)
"43","Los Angeles AFB","California","Air Force",33.9180881,-118.3820455,5801,"180701060102",29.7,"meters",c(-118.3820455, 33.9180881)
"44","Mare Island NSY","California","Navy",38.0954755,-122.2724704,57778,"180500020801",9.45,"meters",c(-122.2724704, 38.0954755)
"45","Military Ocean Terminal Concord","California","Army",38.0196297,-122.0262623,57617,"180500010302",8.67,"meters",c(-122.0262623, 38.0196297)
"46","MIRAMAR CA MCAS","California","Navy",32.8701459,-117.1441227,83941,"180703041101",136.61,"meters",c(-117.1441227, 32.8701459)
"47","Moffett Field/Moffett Field NAS","California","Air Force/Navy",37.4094963,-122.0510589,56907,"180500030405",8.13,"meters",c(-122.0510589, 37.4094963)
"48","NAS PT MUGU CA NAVAIRWARC","California","Navy",34.1126976,-119.1055274,5549,"180701030201",3.76,"meters",c(-119.1055274, 34.1126976)
"49","NAVBASE CORONADO","California","Navy",32.6761278,-117.1576838,84025,"180703041202",4.38,"meters",c(-117.1576838, 32.6761278)
"50","NAVBASE SAN DIEGO","California","Navy",32.6847619,-117.1299637,84025,"180703041202",4.36,"meters",c(-117.1299637, 32.6847619)
"51","NAVCOMTELSTA STOCKTON","California","Navy",37.950463,-121.36089,84047,"180400030501",0,"meters",c(-121.36089, 37.950463)
"52","NG Sacramento Mather (AASF)","California","Army",38.5636592,-121.297211,34049,"180201630701",27.63,"meters",c(-121.297211, 38.5636592)
"53","Onizuka Air Force Station","California","Air Force",33.9180881,-118.3820455,5801,"180701060102",29.7,"meters",c(-118.3820455, 33.9180881)
"54","Ontario Air Force Station","California","Air Force",34.0758674,-117.6316199,84505,"180702030704",323.05,"meters",c(-117.6316199, 34.0758674)
"55","Roseville Armory","California","Army",38.7576943,-121.2954038,84074,"180201610302",50.31,"meters",c(-121.2954038, 38.7576943)
"56","SAN DIEGO CA AUXLNDFLD","California","Navy",33.022457,-118.587324,2058,"180701070004",44.35,"meters",c(-118.587324, 33.022457)
"57","SAN DIEGO CA FASWTC PAC / SAN DIEGO CA NISE-WEST","California","Navy",32.725491,-117.218411,84025,"180703041202",4,"meters",c(-117.218411, 32.725491)
"58","SAN NICOLAS IS CA OLF","California","Navy",33.2464523,-119.4991693,2055,"180701070001",213.48,"meters",c(-119.4991693, 33.2464523)
"59","SPAWARSYSCEN PACIFIC SD","California","Navy",32.708658,-117.2472491,84025,"180703041202",108.93,"meters",c(-117.2472491, 32.708658)
"60","Stockton AASF","California","Army",37.885348,-121.247203,57589,"180400510403",7.24,"meters",c(-121.247203, 37.885348)
"61","Buckley Annex","Colorado","Air Force",39.719426,-104.869963,57912,"101900030204",1657.32,"meters",c(-104.869963, 39.719426)
"62","Cheyenne Mountain Air Force Station","Colorado","Air Force",38.7444906,-104.8460625,18770,"110200030305",2145.23,"meters",c(-104.8460625, 38.7444906)
"63","Gypsum (HAATS)","Colorado","Army",39.6459327,-106.9163562,56962,"140100030605",1977.47,"meters",c(-106.9163562, 39.6459327)
"64","Rocky Mountain Arsenal","Colorado","Army",39.8357772,-104.8378652,53449,"101900030402",1604.36,"meters",c(-104.8378652, 39.8357772)
"65","Schriever AFB","Colorado","Air Force",38.8162375,-104.5364131,18409,"110200040302",1941.82,"meters",c(-104.5364131, 38.8162375)
"66","USAF Academy","Colorado","Air Force",38.9983094,-104.8613176,57876,"110200030105",2109.16,"meters",c(-104.8613176, 38.9983094)
"67","BLOOMFIELD CT NWIRP","Connecticut","Navy",41.860278,-72.70014,54529,"010802070602",48.58,"meters",c(-72.70014, 41.860278)
"68","Groton AVCRAD and TASMG Hangar 2","Connecticut","Army",41.3340705,-72.0489045,82522,"011000030303",2.48,"meters",c(-72.0489045, 41.3340705)
"69","NEW LONDON CT NSB","Connecticut","Navy",41.3786923,-72.1046019,82520,"011000030203",64.42,"meters",c(-72.1046019, 41.3786923)
"70","Windsor Locks AASF","Connecticut","Army",41.9437787,-72.6732174,38393,"010802050104",47.88,"meters",c(-72.6732174, 41.9437787)
"71","Duncan Armory AASF","Delaware","Army",39.682212,-75.616038,21100,"020402050505",19.59,"meters",c(-75.616038, 39.682212)
"72","River Road Training Site","Delaware","Army",39.628277,-75.614088,18491,"020402050702",6.6,"meters",c(-75.614088, 39.628277)
"73","Stern Armory","Delaware","Army",39.728841,-75.623617,43605,"020402050308",23.36,"meters",c(-75.623617, 39.728841)
"74","Wilmington Armory","Delaware","Army",39.7274932,-75.5552291,21100,"020402050505",0.97,"meters",c(-75.5552291, 39.7274932)
"75","ANACOSTIA DC NS","District of Columbia","Navy",38.84603,-77.010948,35902,"020700100204",6.08,"meters",c(-77.010948, 38.84603)
"76","Ft. Belvoir AASF","District of Columbia","Army",38.715286,-77.176503,29394,"020700100402",11.27,"meters",c(-77.176503, 38.715286)
"77","WASHINGTON DC COMNAVDIST","District of Columbia","Navy",38.871841,-76.994518,35902,"020700100204",1.56,"meters",c(-76.994518, 38.871841)
"78","WASHINGTON DC NRL","District of Columbia","Navy",38.9071923,-77.0368707,49710,"020700100102",22.04,"meters",c(-77.0368707, 38.9071923)
"79","Brooksville RC, AASF #2","Florida","Army",28.477905,-82.455294,11157,"031002070403",20.52,"meters",c(-82.455294, 28.477905)
"80","Dade City Readiness Center","Florida","Army",28.342472,-82.2228109,11199,"031002050203",33.14,"meters",c(-82.2228109, 28.342472)
"81","FISC JAX (NWCF)","Florida","Navy",30.794668,-81.555165,7907,"030702040907",6.58,"meters",c(-81.555165, 30.794668)
"82","Fort Pierce Readiness Center","Florida","Army",27.496397,-80.300952,56014,"030802030400",2.23,"meters",c(-80.300952, 27.496397)
"83","Hurlburt Field","Florida","Air Force",30.4236556,-86.6949711,6795,"031401050103",10.01,"meters",c(-86.6949711, 30.4236556)
"84","KEY WEST FL NAS","Florida","Navy",24.5787234,-81.7763308,10737,"030902030300",1.08,"meters",c(-81.7763308, 24.5787234)
"85","Lakeland Readiness Center","Florida","Army",27.995167,-82.009924,5536,"031002040103",42.08,"meters",c(-82.009924, 27.995167)
"86","MAYPORT FL NS","Florida","Navy",30.3787375,-81.410396,13172,"030801031605",0.54,"meters",c(-81.410396, 30.3787375)
"87","NSWC DIV PANAMA CITY","Florida","Navy",30.1764642,-85.7562468,8398,"031401011003",4.76,"meters",c(-85.7562468, 30.1764642)
"88","Orlando NTC","Florida","Navy",28.5675377,-81.3267141,1787,"030801011006",30.83,"meters",c(-81.3267141, 28.5675377)
"89","Pensacola (Ellyson Field)","Florida","Army",30.5284248,-87.2031296,54639,"031401050401",33.61,"meters",c(-87.2031296, 30.5284248)
"90","Plant City Readiness Center","Florida","Army",27.9870326,-82.1140936,10085,"031002050103",43.55,"meters",c(-82.1140936, 27.9870326)
"91","ALBANY GA MCLB","Georgia","Navy",31.550765,-84.063847,86429,"031300080201",68.1,"meters",c(-84.063847, 31.550765)
"92","Fort Benning","Georgia","Army",32.3530561,-84.9552211,34448,"031300030306",103.7,"meters",c(-84.9552211, 32.3530561)
"93","Fort Gordon - Gillem Annex","Georgia","Army",33.6202,-84.3289,86005,"030701030201",289.51,"meters",c(-84.3289, 33.6202)
"94","Fort Stewart","Georgia","Army",31.8690667,-81.6089873,10763,"030602030506",23.69,"meters",c(-81.6089873, 31.8690667)
"95","Fort Stewart - Hunter AAF","Georgia","Army",31.8687592,-81.6090838,10763,"030602030506",23.76,"meters",c(-81.6090838, 31.8687592)
"96","General Lucius D. Clay National Guard Center","Georgia","Army",33.9125738,-84.5307506,9809,"031300011104",323.75,"meters",c(-84.5307506, 33.9125738)
"97","Georgia Garrison Training Center","Georgia","Army",31.8736713,-81.5939849,12719,"030602040401",23.9,"meters",c(-81.5939849, 31.8736713)
"98","Hunter AAF - AASF Hangar 805","Georgia","Army",32.030639,-81.128929,11904,"030602040202",5.83,"meters",c(-81.128929, 32.030639)
"99","KINGS BAY GA NSB","Georgia","Navy",30.7854986,-81.5689561,7907,"030702040907",8.33,"meters",c(-81.5689561, 30.7854986)
"100","Savannah International Airport","Georgia","Air Force",32.1294267,-81.2018521,89076,"030601090307",11.43,"meters",c(-81.2018521, 32.1294267)
"101","Winder Barrow County Airport (enclave)","Georgia","Army",33.9809962,-83.6759214,13651,"030701010301",281.77,"meters",c(-83.6759214, 33.9809962)
"102","Barbers Point NAS","Hawaii","Navy",21.30041,-158.069915,8141,"200600000405",3.02,"meters",c(-158.069904318424, 21.3004182932603)
"103","BARKING SANDS HI PMRF","Hawaii","Navy",22.0352675,-159.7819574,8237,"200700000502",5.63,"meters",c(-159.781945915888, 22.0352755430476)
"104","Bellows Air Force Station","Hawaii","Air Force",21.3688029,-157.7106512,8147,"200600000207",5.99,"meters",c(-157.710640671008, 21.3688111365182)
"105","Fort Ruger","Hawaii","Army",21.2595061,-157.7968065,8134,"200600000302",17.31,"meters",c(-157.796795941008, 21.2595143964093)
"106","Hilo AASF #2","Hawaii","Army",19.715588,-155.055642,8699,"200100000407",10.22,"meters",c(-155.055632747642, 19.7155969121094)
"107","JBPHH PEARL HARBOR HI","Hawaii","Navy",21.348698,-157.9440178,8137,"200600000401",8.33,"meters",c(-157.944007170081, 21.348706261241)
"108","Kalaoloa Facility (Former Barbers Point-NAS)","Hawaii","Army",21.322712,-158.083528,8141,"200600000405",15.67,"meters",c(-158.083517310852, 21.3227202830264)
"109","KANEOHE BAY HI MCB","Hawaii","Navy",21.4433045,-157.7489524,8145,"200600000205",3.47,"meters",c(-157.748941848848, 21.4433127017613)
"110","NAVFAC HAWAII P HARBOR","Hawaii","Navy",21.3534534,-157.928753,8137,"200600000401",15.35,"meters",c(-157.928742376428, 21.3534616579065)
"111","NMC EAD DET PEARL HARBOR","Hawaii","Navy",21.338652,-157.979934,8140,"200600000404",3.97,"meters",c(-157.979923355067, 21.3386602685181)
"112","PEARL HARBOR HI FISC","Hawaii","Navy",21.361553,-157.943043,8137,"200600000401",3.27,"meters",c(-157.943032369581, 21.3615612547759)
"113","PEARL HARBOR HI NSY","Hawaii","Navy",21.3486928,-157.9440233,8137,"200600000401",8.33,"meters",c(-157.944012670078, 21.348701061244)
"114","USAG HI - Dillingham Military Reservation","Hawaii","Army",21.4829929,-158.0428138,8139,"200600000403",253.89,"meters",c(-158.042803117038, 21.4830011006269)
"115","USAG HI - Fort Shafter/Tripler Army Medical Center","Hawaii","Army",21.3624095,-157.8914319,8133,"200600000305",105.79,"meters",c(-157.891421292145, 21.3624177510853)
"116","USAG HI - Hawaii - Wheeler Army Airfield","Hawaii","Army",21.4744642,-158.0328463,8139,"200600000403",242.94,"meters",c(-158.032835622029, 21.4744724042388)
"117","USAG HI - Helemano RAD REC Station","Hawaii","Army",21.53596,-158.019737,8113,"200600000102",337.09,"meters",c(-158.019726323288, 21.53596817276)
"118","USAG HI - Kahuku Training Area","Hawaii","Army",21.677219,-157.954548,8117,"200600000201",4.01,"meters",c(-157.954537341543, 21.6772270981474)
"119","USAG HI - Kilauea Military Reservation","Hawaii","Army",19.433028,-155.273936,8704,"200100000703",1218.99,"meters",c(-155.273926667432, 19.4330370649154)
"120","USAG HI - Kipapa Ammunition Storage Site","Hawaii","Army",21.4604828,-158.0101264,8139,"200600000403",213.94,"meters",c(-158.010115733007, 21.4604910097543)
"121","USAG HI - Kunia Field Station","Hawaii","Army",21.4765221,-158.0529675,8139,"200600000403",230.42,"meters",c(-158.05295681306, 21.4765303044992)
"122","USAG HI - Makua Military Reservation","Hawaii","Army",21.528407,-158.2274144,8171,"200600000506",4.9,"meters",c(-158.227403632832, 21.5284151898675)
"123","USAG HI - Oahu - Schofield Barracks","Hawaii","Army",21.4954957,-158.0626555,8113,"200600000102",272.85,"meters",c(-158.062644807428, 21.4955038956677)
"124","USAG HI - Pohakuloa Training Center","Hawaii","Army",19.673578,-155.34238,90008,"200100000403",1572.42,"meters",c(-155.34237062337, 19.6735869480452)
"125","USAG HI - Waikakalaua Ammunition Storage Tunnels","Hawaii","Army",21.4389123,-158.0000565,8139,"200600000403",163.28,"meters",c(-158.00004583899, 21.4389205198587)
"126","Waiawa Unit Training Equipment Site (UTES)","Hawaii","Army",21.444325,-157.962677,8138,"200600000402",253.42,"meters",c(-157.962666354985, 21.4443332147833)
"127","Edgemeade TS Mountain Home","Idaho","Army",43.142794,-115.650135,78874,"170501011102",1024.34,"meters",c(-115.650135, 43.142794)
"128","Gowen Field Boise/Airport Training Area","Idaho","Army",43.5658231,-116.2223159,75287,"170501140202",868.56,"meters",c(-116.2223159, 43.5658231)
"129","Orchard MATES Boise","Idaho","Army",43.298031,-116.063067,78574,"170501010905",958.46,"meters",c(-116.063067, 43.298031)
"130","Chicago (Midway Armory, AASF #2)","Illinois","Army",41.7784849,-87.7566708,7119,"071200040705",188.32,"meters",c(-87.7566708, 41.7784849)
"131","Decatur AASF #1","Illinois","Army",39.8393162,-88.8784239,9907,"071300060405",204.58,"meters",c(-88.8784239, 39.8393162)
"132","Glenview NAS","Illinois","Navy",42.0917068,-87.8143844,8418,"071200030103",192.57,"meters",c(-87.8143844, 42.0917068)
"133","GREAT LAKES IL NSTC","Illinois","Navy",42.3124041,-87.8413901,38652,"040400020501",197.38,"meters",c(-87.8413901, 42.3124041)
"134","Kankakee AASF / Readiness Center","Illinois","Army",41.063078,-87.845407,8412,"071200021402",188.91,"meters",c(-87.845407, 41.063078)
"135","O'Hare Air Reserve Station","Illinois","Air Force",41.9741625,-87.9073214,7057,"071200040506",201.41,"meters",c(-87.9073214, 41.9741625)
"136","Peoria AASF #3 and AASF #4","Illinois","Army",40.659908,-89.681515,89422,"071300030303",196.64,"meters",c(-89.681515, 40.659908)
"137","Camp Atterbury/Range 36 ATG","Indiana","Army",39.284422,-86.057748,87484,"051202040903",260.31,"meters",c(-86.057748, 39.284422)
"138","Gary AASF","Indiana","Army",41.614885,-87.403333,30994,"071200030406",179.94,"meters",c(-87.403333, 41.614885)
"139","Indianapolis","Indiana","Navy",39.768403,-86.158068,87072,"051202011201",219.5,"meters",c(-86.158068, 39.768403)
"140","Muscatatuck Urban Training Center","Indiana","Army",39.0494814,-85.5286931,61026,"051202070404",242.49,"meters",c(-85.5286931, 39.0494814)
"141","Boone AASF","Iowa","Army",42.0484304,-93.8538163,89029,"071000040706",349.58,"meters",c(-93.8538163, 42.0484304)
"142","Camp Dodge Johnston Training Site","Iowa","Army",41.6889207,-93.7120181,89134,"071000040911",254.23,"meters",c(-93.7120181, 41.6889207)
"143","Davenport AASF","Iowa","Army",41.6165546,-90.5816807,6808,"070801010405",227.66,"meters",c(-90.5816807, 41.6165546)
"144","Iowa Army Ammunition Plant","Iowa","Army",40.8253249,-91.2654254,10415,"070801071005",221.42,"meters",c(-91.2654254, 40.8253249)
"145","Waterloo Big Rock AASF #2","Iowa","Army",42.554788,-92.38388,3788,"070802050702",264.26,"meters",c(-92.38388, 42.554788)
"146","ASF New Century","Kansas","Army",38.826556,-94.897183,60511,"102901020102",321.99,"meters",c(-94.897183, 38.826556)
"147","Forbes Field","Kansas","Air Force",38.9483444,-95.6664279,62896,"102701040104",321.13,"meters",c(-95.6664279, 38.9483444)
"148","McConnell AFB","Kansas","Air Force",37.631893,-97.2514246,20051,"110300130106",413.25,"meters",c(-97.2514246, 37.631893)
"149","Salina AASF #2","Kansas","Army",38.784894,-97.641845,15700,"102600100407",384.81,"meters",c(-97.641845, 38.784894)
"150","Topeka Forbes Field AASF #1","Kansas","Army",38.9483444,-95.6664279,62896,"102701040104",321.13,"meters",c(-95.6664279, 38.9483444)
"151","Blue Grass Army Depot","Kentucky","Army",37.6815013,-84.2573889,64784,"051002050202",311.5,"meters",c(-84.2573889, 37.6815013)
"152","Boone National Guard Center - AASF","Kentucky","Army",38.1862476,-84.9021003,35478,"051002051004",232.88,"meters",c(-84.9021003, 38.1862476)
"153","Fort Campbell","Kentucky","Army",36.6634467,-87.4773902,22378,"051302060604",168.25,"meters",c(-87.4773902, 36.6634467)
"154","Fort Knox","Kentucky","Army",37.8836637,-85.9652686,19108,"051401040104",233.21,"meters",c(-85.9652686, 37.8836637)
"155","Louisville Crane Division Det NOS/NSWC","Kentucky","Navy",38.870614,-86.834277,85793,"051202081101",229.68,"meters",c(-86.834277, 38.870614)
"156","W.H. Ford Regional Training Center","Kentucky","Army",37.2567569,-87.2060481,87577,"051100060401",154.15,"meters",c(-87.2060481, 37.2567569)
"157","Camp Beauregard","Louisiana","Army",31.3716452,-92.4000294,86796,"080403040501",44.95,"meters",c(-92.4000294, 31.3716452)
"158","Camp Villere","Louisiana","Army",30.3175236,-89.8130313,64850,"080902010305",5.64,"meters",c(-89.8130313, 30.3175236)
"159","Esler Field AASF #2","Louisiana","Army",31.3937585,-92.2956919,86801,"080403040502",26.58,"meters",c(-92.2956919, 31.3937585)
"160","Fort Polk","Louisiana","Army",31.0436081,-93.2219164,87722,"080802040301",95.25,"meters",c(-93.2219164, 31.0436081)
"161","Fort Polk - Peason Ridge","Louisiana","Army",31.3698582,-93.2684215,60522,"111402070202",121.29,"meters",c(-93.2684215, 31.3698582)
"162","Hammond AASF #1","Louisiana","Army",30.5178278,-90.4070755,101961,"080702040501",12.13,"meters",c(-90.4070755, 30.5178278)
"163","NEW ORLEANS LA NAS JRB","Louisiana","Navy",29.823879,-90.013772,86590,"080903010404",-0.91,"meters",c(-90.013772, 29.823879)
"164","Bangor Training Site","Maine","Army",44.8209628,-68.7413009,64617,"010200051003",35.36,"meters",c(-68.7413009, 44.8209628)
"165","Brunswick  West","Maine","Army",43.9140162,-69.966996,21465,"010400021007",19.89,"meters",c(-69.966996, 43.9140162)
"166","Brunswick Armed Forces Reserve Center","Maine","Army",44.0804023,-70.2751312,20891,"010400020910",76.24,"meters",c(-70.2751312, 44.0804023)
"167","Brunswick East","Maine","Army",43.9140162,-69.966996,21465,"010400021007",19.89,"meters",c(-69.966996, 43.9140162)
"168","Caswell Training Site","Maine","Army",47.00091,-67.861146,41473,"010100041406",242.66,"meters",c(-67.861146, 47.00091)
"169","Presque Isle SFRO","Maine","Army",46.698554,-68.003976,41455,"010100041203",137.67,"meters",c(-68.003976, 46.698554)
"170","Aberdeen Proving Ground","Maryland","Army",39.4632824,-76.1203982,23101,"020600030202",5.22,"meters",c(-76.1203982, 39.4632824)
"171","Annapolis NSWC Carderock DIV Det","Maryland","Navy",38.9734074,-77.1950927,35900,"020700081005",38.24,"meters",c(-77.1950927, 38.9734074)
"172","BAINBRIDGE MD NTC","Maryland","Navy",39.6055541,-76.0995268,87781,"020503061713",84.94,"meters",c(-76.0995268, 39.6055541)
"173","Fort Detrick","Maryland","Army",39.4382526,-77.4231264,86099,"020700090606",111.68,"meters",c(-77.4231264, 39.4382526)
"174","Fort Detrick - Forest Glen Annex","Maryland","Army",39.0059681,-77.0527078,49710,"020700100102",94.41,"meters",c(-77.0527078, 39.0059681)
"175","Fort Meade - Phoenix Military Reservation","Maryland","Army",39.097893,-76.729178,60054,"020600060203",46.13,"meters",c(-76.729178, 39.097893)
"176","Martin State","Maryland","Air Force",39.3283353,-76.4236353,64575,"020600030701",1.65,"meters",c(-76.4236353, 39.3283353)
"177","NAVSURFWARCEN WBETH DD","Maryland","Navy",38.973842,-77.196196,35900,"020700081005",38.97,"meters",c(-77.196196, 38.973842)
"178","SOLOMONS MD NRECC","Maryland","Navy",38.336567,-76.472186,85910,"020600060604",6,"meters",c(-76.472186, 38.336567)
"179","ST INIGOES MD NAVELEXSYS","Maryland","Navy",38.146847,-76.424986,85343,"020700110903",5.1,"meters",c(-76.424986, 38.146847)
"180","W REED NAT MIL MED CTR","Maryland","Navy",39.001465,-77.0939265,49710,"020700100102",90.42,"meters",c(-77.0939265, 39.001465)
"181","Weide AASF (enclave on APG)","Maryland","Army",39.394065,-76.292104,23106,"020600030602",5.85,"meters",c(-76.292104, 39.394065)
"182","Camp Edwards","Massachusetts","Army",41.6542251,-70.5376902,15612,"010900020203",34.87,"meters",c(-70.5376902, 41.6542251)
"183","Natick Soldier Systems Center","Massachusetts","Army",42.288372,-71.362548,8325,"010700050103",52.06,"meters",c(-71.362548, 42.288372)
"184","Sudbury","Massachusetts","Army",42.3834278,-71.4161725,8329,"010700050104",55.99,"meters",c(-71.4161725, 42.3834278)
"185","Calumet Air Force Station","Michigan","Air Force",47.3713733,-88.1701124,24698,"040201030502",462.56,"meters",c(-88.1701124, 47.3713733)
"186","Detroit Arsenal","Michigan","Army",42.4923148,-83.0381592,28343,"040900030205",189.71,"meters",c(-83.0381592, 42.4923148)
"187","Ft Custer","Michigan","Army",42.3351609,-85.3161211,64433,"040500030508",260.03,"meters",c(-85.3161211, 42.3351609)
"188","Lansing Airport Hangar","Michigan","Army",42.7751565,-84.5901729,60928,"040500040704",260.07,"meters",c(-84.5901729, 42.7751565)
"189","MTC-H Camp Grayling Aifield","Michigan","Army",44.680278,-84.728889,24502,"040700070306",351.55,"meters",c(-84.728889, 44.680278)
"190","MTC-H Camp Grayling-Cantonment","Michigan","Army",44.630977,-84.8006,24401,"040601030104",357.96,"meters",c(-84.8006, 44.630977)
"191","MTC-H Camp Grayling-MATES","Michigan","Army",44.686392,-84.664214,24343,"040700070308",350.87,"meters",c(-84.664214, 44.686392)
"192","Camp Ripley (Eastern AOIs)","Minnesota","Army",46.075772,-94.347973,276,"070101040903",348.02,"meters",c(-94.347973, 46.075772)
"193","Holman Field AASF","Minnesota","Army",44.942325,-93.065073,61773,"070102060805",214.1,"meters",c(-93.065073, 44.942325)
"194","MINNEAPOLIS MN NIROP","Minnesota","Navy",45.055244,-93.276851,61708,"070102060702",254.54,"meters",c(-93.276851, 45.055244)
"195","Minneapolis-St Paul Air Reserve Station","Minnesota","Air Force",44.8966979,-93.2162838,60789,"070200121110",252.87,"meters",c(-93.2162838, 44.8966979)
"196","Minneapolis-St Paul IAP","Minnesota","Air Force",44.8847554,-93.2222846,60789,"070200121110",251.72,"meters",c(-93.2222846, 44.8847554)
"197","St Cloud AASF","Minnesota","Army",45.5391977,-94.0565694,256,"070102030304",309.61,"meters",c(-94.0565694, 45.5391977)
"198","AASF Jackson","Mississippi","Army",32.332745,-90.2259714,63008,"031800020604",94.28,"meters",c(-90.2259714, 32.332745)
"199","AASF Meridian","Mississippi","Army",32.346472,-88.744913,61609,"031700010603",92.49,"meters",c(-88.744913, 32.346472)
"200","AASF Tupelo","Mississippi","Army",34.272608,-88.766089,62351,"031601020401",100.79,"meters",c(-88.766089, 34.272608)
"201","Jefferson City AASF/Armory","Missouri","Army",38.5811111,-92.1847222,39842,"103001021304",187.05,"meters",c(-92.1847222, 38.5811111)
"202","KANSAS CITY MO","Missouri","Navy",39.0997265,-94.5785667,87974,"102701040607",273.59,"meters",c(-94.5785667, 39.0997265)
"203","Springfield AVCRAD","Missouri","Army",37.2231855,-93.2687431,93509,"110100020301",407.97,"meters",c(-93.2687431, 37.2231855)
"204","Fort William Henry Harrison /JFHQ MT","Montana","Army",46.6224029,-112.0969388,60375,"100301011405",1207.45,"meters",c(-112.0969388, 46.6224029)
"205","Helena Aviation Readiness Center - AASF","Montana","Army",46.6095791,-111.9902266,4191,"100301011310",1168.2,"meters",c(-111.9902266, 46.6095791)
"206","Grand Island AASF/RC","Nebraska","Army",40.9693717,-98.3185653,65151,"102001030401",561.44,"meters",c(-98.3185653, 40.9693717)
"207","Lincoln AASF/Readiness Center","Nebraska","Army",40.841452,-96.756936,65592,"102002030406",354.6,"meters",c(-96.756936, 40.841452)
"208","Offutt AFB","Nebraska","Air Force",41.1242718,-95.9145568,69353,"102300060206",311.82,"meters",c(-95.9145568, 41.1242718)
"209","Hawthorne Army Depot","Nevada","Army",38.565724,-118.7198004,65244,"160503040203",2004.49,"meters",c(-118.7198004, 38.565724)
"210","Las Vegas Cheyenne AASF","Nevada","Army",36.2175239,-115.2340375,65091,"150100150604",696.81,"meters",c(-115.2340375, 36.2175239)
"211","Nellis AFB","Nevada","Air Force",36.2414162,-115.0508066,65024,"150100150403",573.51,"meters",c(-115.0508066, 36.2414162)
"212","Reno AASF","Nevada","Army",39.6731723,-119.8834562,72218,"180800030901",1531.33,"meters",c(-119.8834562, 39.6731723)
"213","AASF Concord","New Hampshire","Army",43.210265,-71.512478,20646,"010700060302",103.47,"meters",c(-71.512478, 43.210265)
"214","State Military Reservation","New Hampshire","Army",43.210265,-71.512478,20646,"010700060302",103.47,"meters",c(-71.512478, 43.210265)
"215","AASF Main Hangar-cold storage","New Jersey","Army",40.0351,-74.338396,72044,"020403010303",24.5,"meters",c(-74.338396, 40.0351)
"216","Atlantic City","New Jersey","Air Force",39.3642834,-74.4229266,21147,"020403020403",1.66,"meters",c(-74.4229266, 39.3642834)
"217","Kirtland AFB","New Mexico","Air Force",35.0539718,-106.5338817,67688,"130202030304",1665.06,"meters",c(-106.5338817, 35.0539718)
"218","Riorancho","New Mexico","Army",35.2327544,-106.6630437,67598,"130202030107",1606.84,"meters",c(-106.6630437, 35.2327544)
"219","Roswell","New Mexico","Army",33.3942655,-104.5230242,72399,"130600080704",1089.25,"meters",c(-104.5230242, 33.3942655)
"220","Santa Fe AASF","New Mexico","Army",35.683794,-105.942038,66952,"130202010102",2131.66,"meters",c(-105.942038, 35.683794)
"221","Albany AASF #3/DMNA HQ /FMS #16","New York","Army",42.742478,-73.796711,67670,"020200041110",88.35,"meters",c(-73.796711, 42.742478)
"222","BETHPAGE NY NWIRP","New York","Navy",40.7442664,-73.4820687,45138,"020302020201",32.13,"meters",c(-73.4820687, 40.7442664)
"223","Fort Hamilton","New York","Army",40.6094454,-74.0285434,12931,"020301040505",12.33,"meters",c(-74.0285434, 40.6094454)
"224","Rochester Readiness Center/AASF #2","New York","Army",43.113986,-77.673124,45904,"041300030701",162.26,"meters",c(-77.673124, 43.113986)
"225","Ronkonkoma Readiness Center/AASF #1","New York","Army",40.7897527,-73.1043628,14596,"020302020305",25.3,"meters",c(-73.1043628, 40.7897527)
"226","Roslyn Air National Guard Station","New York","Air Force",40.8827614,-73.8809588,65647,"020301010405",52.81,"meters",c(-73.8809588, 40.8827614)
"227","Schenectady Airport","New York","Air Force",42.8540871,-73.9288473,67669,"020200041108",102.51,"meters",c(-73.9288473, 42.8540871)
"228","Watervliet Arsenal","New York","Army",42.7193885,-73.7080405,70888,"020200060302",18.54,"meters",c(-73.7080405, 42.7193885)
"229","CAMP LEJEUNE NC MCB","North Carolina","Navy",34.6250544,-77.4013403,92886,"030203020208",8.7,"meters",c(-77.4013403, 34.6250544)
"230","Fort Bragg - Camp Mackall","North Carolina","Army",35.0365857,-79.4976266,93887,"030402030203",103.49,"meters",c(-79.4976266, 35.0365857)
"231","Military Ocean Terminal Sunny Point","North Carolina","Army",33.9851733,-77.9563766,90509,"030300050704",5.27,"meters",c(-77.9563766, 33.9851733)
"232","Morrisville AASF #1","North Carolina","Army",35.8663669,-78.777747,93393,"030202010801",122.95,"meters",c(-78.777747, 35.8663669)
"233","Salisbury AASF #2","North Carolina","Army",35.639943,-80.5194999,71954,"030401030101",232.03,"meters",c(-80.5194999, 35.639943)
"234","Bismarck AASF Complex","North Dakota","Army",46.762676,-100.742472,65646,"101301031505",503.01,"meters",c(-100.742472, 46.762676)
"235","Cavalier Air Force Station","North Dakota","Air Force",48.7319894,-97.9053019,81994,"090203161102",356.2,"meters",c(-97.9053019, 48.7319894)
"236","Fargo AASF #2","North Dakota","Army",46.91509,-96.804787,62055,"090201040504",273.43,"meters",c(-96.804787, 46.91509)
"237","Grand Forks AFB","North Dakota","Air Force",47.9525204,-97.3824492,92737,"090203070205",272.45,"meters",c(-97.3824492, 47.9525204)
"238","Air Force Plant 36","Ohio","Air Force",39.244411,-84.443377,44470,"050902030103",170.89,"meters",c(-84.443377, 39.244411)
"239","Green Armory AASF#1","Ohio","Army",40.926249,-81.448495,66064,"050400010503",371.8,"meters",c(-81.448495, 40.926249)
"240","Lima Army Tank Plant","Ohio","Army",40.7030165,-84.1309804,69595,"041000070306",263.07,"meters",c(-84.1309804, 40.7030165)
"241","Mansfield","Ohio","Air Force",40.75839,-82.5154471,17770,"050400020204",377.91,"meters",c(-82.5154471, 40.75839)
"242","Mansfield LAHM Fire Station","Ohio","Army",40.7592574,-82.5104972,17770,"050400020204",357.53,"meters",c(-82.5104972, 40.7592574)
"243","Rickenbacker (MTA) - AASF #2","Ohio","Army",39.807115,-82.949937,17670,"050600011603",221.26,"meters",c(-82.949937, 39.807115)
"244","Springfield-Beckley Municipal","Ohio","Air Force",39.8431394,-83.8436718,70532,"050800011902",318.54,"meters",c(-83.8436718, 39.8431394)
"245","Youngstown Air Reserve Station","Ohio","Air Force",41.2694125,-80.6772422,16153,"050301030503",354.47,"meters",c(-80.6772422, 41.2694125)
"246","Fort Sill","Oklahoma","Army",34.5938359,-98.4184224,19838,"111302020303",339.39,"meters",c(-98.4184224, 34.5938359)
"247","Lexington AASF #1","Oklahoma","Army",35.024505,-97.22934,43357,"110902020502",332.51,"meters",c(-97.22934, 35.024505)
"248","McAlester Army Ammunition Plant","Oklahoma","Army",34.9334298,-95.7697131,24145,"110902040503",223.96,"meters",c(-95.7697131, 34.9334298)
"249","Tulsa AASF #2","Oklahoma","Army",36.215838,-95.852194,71102,"110701070403",185.62,"meters",c(-95.852194, 36.215838)
"250","Camp Adair  Corvallis","Oregon","Army",44.5612266,-123.2804876,46841,"170900030211",73.12,"meters",c(-123.2804876, 44.5612266)
"251","Central Oregon Unit Training Equipment Site","Oregon","Army",44.255526,-121.1334472,46703,"170703051005",930.62,"meters",c(-121.1334472, 44.255526)
"252","Pang Base Enclave","Oregon","Army",45.5747326,-122.5967686,15631,"170900120201",7.82,"meters",c(-122.5967686, 45.5747326)
"253","Pendleton Complex Armory / AASF","Oregon","Army",45.692369,-118.849368,73263,"170701030802",454.44,"meters",c(-118.849368, 45.692369)
"254","Umatilla Chemical Depot/Well #4/Sample # 16-6746-AZW6A","Oregon","Army",45.843056,-119.438056,11987,"170701010602",190.99,"meters",c(-119.438056, 45.843056)
"255","Umatilla Depot","Oregon","Army",38.888684,-77.004719,35899,"020700100103",25.8,"meters",c(-77.004719, 38.888684)
"256","Defense Distribution Center Susquehanna","Pennsylvania","DLA",40.2078741,-76.8486233,43349,"020503051011",106.65,"meters",c(-76.8486233, 40.2078741)
"257","Johnstown AASF #2/Readiness Center","Pennsylvania","Army",40.321285,-78.828315,16072,"050100070503",686.95,"meters",c(-78.828315, 40.321285)
"258","MECHANICSBURG PA NAVICP","Pennsylvania","Navy",40.2284216,-76.9917456,42797,"020503050407",127.99,"meters",c(-76.9917456, 40.2284216)
"259","Philadelphia NS","Pennsylvania","Navy",39.9525839,-75.1652215,21431,"020402031008",12.72,"meters",c(-75.1652215, 39.9525839)
"260","Scranton Army Ammunition Plant","Pennsylvania","Army",41.404131,-75.6656693,100694,"020501070107",224.39,"meters",c(-75.6656693, 41.404131)
"261","Tobyhanna Army Depot","Pennsylvania","Army",41.1860113,-75.4295174,43124,"020401060102",589.89,"meters",c(-75.4295174, 41.1860113)
"262","DAVISVILLE_NCBC","Rhode Island","Navy",41.605397,-71.440414,9265,"010900040908",5.81,"meters",c(-71.440414, 41.605397)
"263","AASF Upstate","South Carolina","Army",34.7694393,-82.3735026,41165,"030501090402",270.54,"meters",c(-82.3735026, 34.7694393)
"264","Allendale Armory","South Carolina","Army",33.0139562,-81.3060226,13142,"030502080201",57.6,"meters",c(-81.3060226, 33.0139562)
"265","BEAUFORT SC MCAS","South Carolina","Navy",32.4755067,-80.7146338,15537,"030502080502",6.22,"meters",c(-80.7146338, 32.4755067)
"266","Charleston NS","South Carolina","Navy",32.8688072,-80.0019291,41883,"030502010707",7.79,"meters",c(-80.0019291, 32.8688072)
"267","Charleston NSY","South Carolina","Navy",32.7357116,-79.9675452,41731,"030502010605",4.49,"meters",c(-79.9675452, 32.7357116)
"268","Fort Jackson","South Carolina","Army",33.9978512,-80.9507406,41897,"030501100203",65.43,"meters",c(-80.9507406, 33.9978512)
"269","PARRIS ISLAND SC MCRD","South Carolina","Navy",32.328746,-80.69479,44411,"030502080608",0.1,"meters",c(-80.69479, 32.328746)
"270","Joint Forces Headquarters","South Dakota","Army",44.0821648,-103.2667382,42284,"101201100202",1021.15,"meters",c(-103.2667382, 44.0821648)
"271","Rapid City Airport Complex","South Dakota","Army",44.0383798,-103.0605163,42286,"101201100204",964.42,"meters",c(-103.0605163, 44.0383798)
"272","AASF #2","Tennessee","Army",35.820245,-83.99465,94552,"060102010205",302.34,"meters",c(-83.99465, 35.820245)
"273","BRISTOL TN NWIRP","Tennessee","Navy",36.551089,-82.177829,9301,"060101020502",481.47,"meters",c(-82.177829, 36.551089)
"274","Holston Army Ammunition Plant","Tennessee","Army",36.5349675,-82.6291608,94220,"060101040101",372.93,"meters",c(-82.6291608, 36.5349675)
"275","Jackson Airport Armory/AASF #3","Tennessee","Army",35.6076922,-88.9084777,18014,"080102050303",122.5,"meters",c(-88.9084777, 35.6076922)
"276","Joint Base Berry Field","Tennessee","Army",36.1306071,-86.6695571,22565,"051302020102",169.96,"meters",c(-86.6695571, 36.1306071)
"277","Memphis NAS (Millington)","Tennessee","Navy",35.3366172,-89.8706934,30649,"080102090302",81.35,"meters",c(-89.8706934, 35.3366172)
"278","Milan Army Ammunition Plant","Tennessee","Army",35.9242569,-88.7623617,17445,"080102030103",129.11,"meters",c(-88.7623617, 35.9242569)
"279","VTS Smyrna - PA","Tennessee","Army",36.0103955,-86.5058132,22430,"051302030305",153.87,"meters",c(-86.5058132, 36.0103955)
"280","Brooks-City Base","Texas","Air Force",29.3459907,-98.4449944,50165,"121003010203",184.43,"meters",c(-98.4449944, 29.3459907)
"281","Carswell AFB","Texas","Air Force",32.7750793,-97.4237241,97357,"120301020105",180.51,"meters",c(-97.4237241, 32.7750793)
"282","Chase Field NAS","Texas","Navy",28.3601791,-97.6585583,27120,"121004070204",54.57,"meters",c(-97.6585583, 28.3601791)
"283","Dallas NAS","Texas","Navy",32.7412064,-96.9838352,96810,"120301020607",151.95,"meters",c(-96.9838352, 32.7412064)
"284","DALLAS TX NWIRP","Texas","Navy",32.740833,-96.979722,96810,"120301020607",149.93,"meters",c(-96.979722, 32.740833)
"285","Fort Bliss","Texas","Army",31.812438,-106.4213208,23319,"130401000103",1181.78,"meters",c(-106.4213208, 31.812438)
"286","Fort Hood","Texas","Army",31.1363315,-97.7797049,17534,"120702011101",278.57,"meters",c(-97.7797049, 31.1363315)
"287","FT WORTH TX NAS JRB","Texas","Navy",32.7750793,-97.4237241,97357,"120301020105",180.51,"meters",c(-97.4237241, 32.7750793)
"288","Goodfellow AFB","Texas","Air Force",31.4359135,-100.4010915,95063,"120901050203",564.38,"meters",c(-100.4010915, 31.4359135)
"289","KINGSVILLE TX NAS","Texas","Navy",27.495298,-97.8187156,55452,"121102040410",14.56,"meters",c(-97.8187156, 27.495298)
"290","Martindale - AASF","Texas","Army",29.8397001,-97.8437258,94802,"121002030304",158.68,"meters",c(-97.8437258, 29.8397001)
"291","MCCLENNAN TX NIROP","Texas","Navy",35.318972,-101.547752,96898,"111203010103",1077.75,"meters",c(-101.547752, 35.318972)
"292","Red River Army Depot","Texas","Army",33.4603046,-94.3707212,94707,"111403020603",110,"meters",c(-94.3707212, 33.4603046)
"293","AASF-E.J. Garn Aviation Complex","Utah","Army",40.613505,-111.99725,82227,"160202040206",1409.75,"meters",c(-111.99725, 40.613505)
"294","Dugway Proving Ground","Utah","Army",40.2210533,-112.7444097,51659,"160203050103",1476,"meters",c(-112.7444097, 40.2210533)
"295","Tooele Army Depot","Utah","Army",40.5214285,-112.4016179,51603,"160203040502",1412.77,"meters",c(-112.4016179, 40.5214285)
"296","Tooele Army Depot South (Deseret Chemical Depot)","Utah","Army",40.5214285,-112.4016179,51603,"160203040502",1412.77,"meters",c(-112.4016179, 40.5214285)
"297","Wendover Airport - AVFAC","Utah","Army",40.7195085,-114.0330711,66317,"160203061601",1287.25,"meters",c(-114.0330711, 40.7195085)
"298","White Sands Missile Range - Green River Test Site","Utah","Army",38.9413,-110.0753,100348,"140600080304",1356.06,"meters",c(-110.0753, 38.9413)
"299","JFHQ Camp Johnson","Vermont","Army",44.501697,-73.162329,45589,"043001030704",97.61,"meters",c(-73.162329, 44.501697)
"300","South Burlington AASF / Readiness Center","Vermont","Army",44.481848,-73.16298,45589,"043001030704",80.64,"meters",c(-73.16298, 44.481848)
"301","AASF Byrd Field","Virginia","Army",37.5065795,-77.3208112,51581,"020802060503",48.02,"meters",c(-77.3208112, 37.5065795)
"302","Camp Pendleton SMR","Virginia","Army",36.8188094,-75.9810656,30106,"020403040501",4.26,"meters",c(-75.9810656, 36.8188094)
"303","CHESAPEAKE VA NSGA NW","Virginia","Navy",36.5690233,-76.2459943,916,"030102051103",5.98,"meters",c(-76.2459943, 36.5690233)
"304","CHESAPEAKE VA ST JULIEN CREEK","Virginia","Navy",36.7940125,-76.3229398,83131,"020802080203",3.73,"meters",c(-76.3229398, 36.7940125)
"305","Chesterfield Limited AASF","Virginia","Army",37.405005,-77.519308,48996,"020802060103",62.33,"meters",c(-77.519308, 37.405005)
"306","CRANEY ISLAND VA NFD/NSC","Virginia","Navy",36.892417,-76.362055,83150,"020802080206",5.77,"meters",c(-76.362055, 36.892417)
"307","DAHLGREN VA NSWCTR DIV","Virginia","Navy",38.326766,-77.037431,6037,"020700110305",4.66,"meters",c(-77.037431, 38.326766)
"308","DAM NECK VA","Virginia","Navy",36.798246,-75.9753516,51150,"030102051301",1.04,"meters",c(-75.9753516, 36.798246)
"309","Defense Supply Center Richmond","Virginia","DLA",37.414644,-77.440685,48996,"020802060103",36.82,"meters",c(-77.440685, 37.414644)
"310","Driver NRTF","Virginia","Navy",36.816389,-76.539444,83057,"020802080106",5.81,"meters",c(-76.539444, 36.816389)
"311","Fort AP Hill","Virginia","Army",38.0718289,-77.3214193,50113,"020801050401",63.53,"meters",c(-77.3214193, 38.0718289)
"312","Fort Belvoir","Virginia","Army",38.7188716,-77.1542684,29394,"020700100402",22.46,"meters",c(-77.1542684, 38.7188716)
"313","Fort Lee","Virginia","Army",37.2489537,-77.3381855,52831,"020802071002",29.68,"meters",c(-77.3381855, 37.2489537)
"314","Fort Pickett MTC","Virginia","Army",37.0618671,-77.9719538,48781,"030102010202",119.05,"meters",c(-77.9719538, 37.0618671)
"315","JB Myer Henderson Hall","Virginia","Army",38.8724998,-77.0794651,35906,"020700100301",56.21,"meters",c(-77.0794651, 38.8724998)
"316","LITTLE CREEK VA NAVPHIBSE","Virginia","Navy",36.917,-76.164,30104,"020801080202",2.75,"meters",c(-76.164, 36.917)
"317","PORTSMOUTH VA NORFOLK NSY","Virginia","Navy",36.8133488,-76.3036107,83131,"020802080203",2.07,"meters",c(-76.3036107, 36.8133488)
"318","QUANTICO VA MCCOMBDEV CMD","Virginia","Navy",38.551111,-77.430556,29421,"020700110105",70.13,"meters",c(-77.430556, 38.551111)
"319","Radford Army Ammunition Plant","Virginia","Army",37.1770734,-80.5397093,53249,"050500011803",586.63,"meters",c(-80.5397093, 37.1770734)
"320","Vint Hill Farms","Virginia","Army",38.7464553,-77.6737906,82952,"020700100502",120.88,"meters",c(-77.6737906, 38.7464553)
"321","WILLIAMSBURG VA FISC CA","Virginia","Navy",37.290682,-76.609607,50926,"020801070203",7.75,"meters",c(-76.609607, 37.290682)
"322","AASF #2 - WA","Washington","Army",47.62673,-117.632929,15688,"170601080601",738.78,"meters",c(-117.632929, 47.62673)
"323","Bremerton","Washington","Army",47.5650067,-122.6269768,77111,"171100190705",13.51,"meters",c(-122.6269768, 47.5650067)
"324","BREMERTON  WA NAVBASE","Washington","Navy",47.72215,-122.7181033,10660,"171100180108",112.59,"meters",c(-122.7181033, 47.72215)
"325","Camp Murray","Washington","Army",47.1170638,-122.5696648,16745,"171100190304",79.82,"meters",c(-122.5696648, 47.1170638)
"326","Four Lakes Air National Guard Station","Washington","Air Force",47.666883,-117.417622,74706,"170103050402",582.6,"meters",c(-117.417622, 47.666883)
"327","INDIAN ISLAND WA NAVMAG","Washington","Navy",48.0530289,-122.7279456,77417,"171100190803",47.38,"meters",c(-122.7279456, 48.0530289)
"328","JB Lewis McChord - Yakima Training Center","Washington","Army",47.1334474,-122.485855,77152,"171100190303",94.24,"meters",c(-122.485855, 47.1334474)
"329","KEYPORT WA NUWC DIV","Washington","Navy",47.6957126,-122.6241925,77418,"171100190707",2.42,"meters",c(-122.6241925, 47.6957126)
"330","MANCHESTER WA FUELDPTPSND","Washington","Navy",47.567008,-122.55308,77109,"171100190703",5.8,"meters",c(-122.55308, 47.567008)
"331","PUGET SOUND  WA NAVSHIPYD","Washington","Navy",47.5579616,-122.6438434,77111,"171100190705",4.17,"meters",c(-122.6438434, 47.5579616)
"332","Puget Sound NS Sand Point","Washington","Navy",47.681972,-122.255472,76377,"171100120400",11.73,"meters",c(-122.255472, 47.681972)
"333","CTC Camp Dawson-Kingwood","West Virginia","Army",39.4501522,-79.6686737,95906,"050200040704",380.61,"meters",c(-79.6686737, 39.4501522)
"334","Fixed wing AAS","West Virginia","Army",39.296124,-80.225053,83262,"050200020401",360.15,"meters",c(-80.225053, 39.296124)
"335","Parkersburg AASF #1","West Virginia","Army",39.352384,-81.4440133,83279,"050302020101",256.78,"meters",c(-81.4440133, 39.352384)
"336","ROCKET CTR WVA WV ABL MNR","West Virginia","Navy",39.561111,-78.834722,82906,"020700020403",202.74,"meters",c(-78.834722, 39.561111)
"337","Wheeling - AASF #2","West Virginia","Army",40.173685,-80.640209,96434,"050301061203",360.23,"meters",c(-80.640209, 40.173685)
"338","Yeager (McLaughlin)","West Virginia","Air Force",38.3726132,-81.5868955,17843,"050500070909",223.91,"meters",c(-81.5868955, 38.3726132)
"339","Madison AASF #2","Wisconsin","Army",43.125835,-89.339732,75459,"070900020701",261.55,"meters",c(-89.339732, 43.125835)
"340","Truax Field","Wisconsin","Air Force",43.1284093,-89.3333236,75459,"070900020701",262.37,"meters",c(-89.3333236, 43.1284093)
"341","Volk Field","Wisconsin","Air Force",43.9269182,-90.2630214,78452,"070700031604",286.82,"meters",c(-90.2630214, 43.9269182)
"342","West Bend AASF #1 / Armory","Wisconsin","Army",43.4240146,-88.136031,51094,"040400030209",265.38,"meters",c(-88.136031, 43.4240146)
"343","Casper","Wyoming","Army",42.8500769,-106.3251749,96585,"101800070805",1561.97,"meters",c(-106.3251749, 42.8500769)
"344","FORT CHAFFEE","Arkansas","Army",35.2543951,-94.1309067,20749,"111102010201",149.81,"meters",c(-94.1309067, 35.2543951)
"345","SACRAMENTO ARMY DEPOT","California","Army",38.5246538,-121.3958752,84618,"180201630402",13.79,"meters",c(-121.3958752, 38.5246538)
"346","FORT BENJAMIN HARRISON","Indiana","Army",39.8683896,-86.019344,87204,"051202010904",249.53,"meters",c(-86.019344, 39.8683896)
"347","JEFFERSON PROVING GROUND","Indiana","Army",38.8362436,-85.416691,62554,"051202070103",263.78,"meters",c(-85.416691, 38.8362436)
"348","FORT WINGATE DEPOT ACTIVITY","New Mexico","Army",35.4718903,-108.5438525,30202,"150200060104",2115.46,"meters",c(-108.5438525, 35.4718903)
"349","TONOPAH AIR FORCE STATION","Nevada","Air Force",38.069211,-117.2305861,27769,"160600030703",1837.41,"meters",c(-117.2305861, 38.069211)
"350","COOS HEAD AIR NATIONAL GUARD STATION","Oregon","Air Force",43.347191,-124.340047,11394,"171003040306",37.18,"meters",c(-124.340047, 43.347191)
